[
  {
    "id": "ATM_1",
    "title": "Beside Sulaymaniyah Municipality",
    "address": {
      "en": "Beside Sulaymaniyah Municipality",
      "ar": "بجانب بلدية السليمانية",
      "ku": "بەردەم شارەوانی سلێمانی"
    },
    "latitude": 35.5623437,
    "longitude": 45.4077282,
    "map_link": "https://maps.app.goo.gl/3tL4rTmNamRsEKFv8",
    "type": "ATM"
  },
  {
    "id": "ATM_2",
    "title": "Cihan University - Information Room - Woloba",
    "address": {
      "en": "Cihan University - Information Room - Woloba",
      "ar": "جامعة جيهان - غرفة الاستعلامات - ولوبة",
      "ku": "زانکۆی جيهان - گەڕەکی ولوبە - ژووری پرسگە"
    },
    "latitude": 35.528377,
    "longitude": 45.41716,
    "map_link": "https://maps.app.goo.gl/BTvNGVLHjCrNRziw5",
    "type": "ATM"
  },
  {
    "id": "ATM_3",
    "title": "Shkarka Road",
    "address": {
      "en": "Shkarka Road",
      "ar": "طريق شكركة",
      "ku": "شەقامی شەکرەکە"
    },
    "latitude": 35.5647566,
    "longitude": 45.3810855,
    "map_link": "https://maps.app.goo.gl/2hZRU43QoQ1LKFXF6",
    "type": "ATM"
  },
  {
    "id": "ATM_4",
    "title": "Kalar Branch - Kalar District - Hama Rash Street / Near Old Baghdad Garage or Mustafa Beg Roundabout",
    "address": {
      "en": "Kalar Branch - Kalar District - Hama Rash Street / Near Old Baghdad Garage or Mustafa Beg Roundabout",
      "ar": "فرع كلار -قضاء كلار- شارع حمه ره ش / قرب كراج قديم بغداد او فلكة مصطفى بك",
      "ku": "لقی کەلار- کەلار - شەقامی حەمە ڕه ش / نزیک گەراجی کۆنی بغداد یان فلکەی مستەفا بەگ"
    },
    "latitude": 34.611969,
    "longitude": 45.31593,
    "map_link": "https://maps.app.goo.gl/Xx5hTykHW7DBHyTA7",
    "type": "ATM"
  },
  {
    "id": "ATM_5",
    "title": "Near New Bakrajoo Stadium",
    "address": {
      "en": "Near New Bakrajoo Stadium",
      "ar": "قرب ملعب بكرجو الجديد",
      "ku": "نزیک یاریگای بەکرەجۆی تازە"
    },
    "latitude": 35.5594474,
    "longitude": 45.356723,
    "map_link": "https://maps.app.goo.gl/Pf34NJHsZj7Bkfh88",
    "type": "ATM"
  },
  {
    "id": "ATM_6",
    "title": "Ranya District - Near Ranjderan Primary School",
    "address": {
      "en": "Ranya District - Near Ranjderan Primary School",
      "ar": "قضاء رانية - قرب ابتدائية رنجدران",
      "ku": "قەزای ڕانیە - نزیک قوتابخانەی ڕەنجدەرانی بنەڕەتی"
    },
    "latitude": 36.25239957,
    "longitude": 44.87177966,
    "map_link": "https://maps.app.goo.gl/gZHruT7VjCiDnGYP6",
    "type": "ATM"
  },
  {
    "id": "ATM_7",
    "title": "Ranya District - Opposite Darwaza Park",
    "address": {
      "en": "Ranya District - Opposite Darwaza Park",
      "ar": "قضاء رانية - مقابل دروازة بارك",
      "ku": "قەزای ڕانیە - بەرامبەر پاڕکی دەروازە"
    },
    "latitude": 36.243033,
    "longitude": 44.879083,
    "map_link": "https://maps.app.goo.gl/C9RTj1ThUPgP8MHc7",
    "type": "ATM"
  },
  {
    "id": "ATM_8",
    "title": "Kalar District - Hama Rash Street - Near Kalar District Municipality",
    "address": {
      "en": "Kalar District - Hama Rash Street - Near Kalar District Municipality",
      "ar": "قضاء كلار - شارع حمه رش - قرب بلدية قضاء كلار",
      "ku": "قەزای کەلار - شەقامی حەمەڕەش - تەنیشت قایمقامیەتی قەزای کەلار"
    },
    "latitude": 34.619611,
    "longitude": 45.325122,
    "map_link": "https://maps.app.goo.gl/6AhTmj98JC9ngJp6A",
    "type": "ATM"
  },
  {
    "id": "ATM_9",
    "title": "Cihan Motors - Service Department - King Mahmoud Circular Street",
    "address": {
      "en": "Cihan Motors - Service Department - King Mahmoud Circular Street",
      "ar": "جيهان موتورز- قسم الأدوات- شارع الملك محمود الدائرى",
      "ku": "چواریانی مەلیک محمود - باڵەخانەی جيهان مۆتۆرز - بەشی خزمەتگوزاری"
    },
    "latitude": 35.545111,
    "longitude": 45.45517,
    "map_link": "https://maps.app.goo.gl/otnrNkdd4toj87g38",
    "type": "ATM"
  },
  {
    "id": "ATM_10",
    "title": "City Star Mall - Ground Floor - Salim Street",
    "address": {
      "en": "City Star Mall - Ground Floor - Salim Street",
      "ar": "ستى ستار مول - الطابق الارضي - شارع سالم",
      "ku": "سیتی ستار مۆڵ - شەقامی سالم -نهۆمی خوارەوە"
    },
    "latitude": 35.558227,
    "longitude": 45.427414,
    "map_link": "https://maps.app.goo.gl/tonNxXxMccNgYFGx9",
    "type": "ATM"
  },
  {
    "id": "ATM_11",
    "title": "Family Mall - King Mahmoud Circular Street - First Floor - Opposite Carrefour Hypermarket",
    "address": {
      "en": "Family Mall - King Mahmoud Circular Street - First Floor - Opposite Carrefour Hypermarket",
      "ar": "فاملي مول - شارع الملك محمود الدائرى-طابق الاول - مقابيل كارفور هايبر ماركت",
      "ku": "فاملی مۆڵ - نهۆمی یەکەم - بەرامبەر كارفور هایپەر ماركێت - شەقامی مەلیک محمود"
    },
    "latitude": 35.541306,
    "longitude": 45.427981,
    "map_link": "https://maps.app.goo.gl/vMifv1WZduxwYdtE7",
    "type": "ATM"
  },
  {
    "id": "ATM_12",
    "title": "Sulaymaniyah Branch - King Mahmoud Intersection - Opposite Khabat School",
    "address": {
      "en": "Sulaymaniyah Branch - King Mahmoud Intersection - Opposite Khabat School",
      "ar": "فرع السليمانية - تقاطع ملك محمود - مقابل مدرسة خبات",
      "ku": "لقی سلێمانی - چواریانی مەلیک محمود - بەرامبەر قوتابخانەی خەبات"
    },
    "latitude": 35.536831,
    "longitude": 45.442091,
    "map_link": "https://maps.app.goo.gl/6MqknYtRBegNZoLy5",
    "type": "ATM"
  },
  {
    "id": "ATM_13",
    "title": "Kalar District - Life Hospital",
    "address": {
      "en": "Kalar District - Life Hospital",
      "ar": "قضاء كلار - مستشفى لايف",
      "ku": "کەلار - نەخۆشخانەی لايڤ"
    },
    "latitude": 34.630235,
    "longitude": 45.313342,
    "map_link": "https://maps.app.goo.gl/BddaKaJPkFDJrHbR9",
    "type": "ATM"
  },
  {
    "id": "ATM_14",
    "title": "Majidi Mall - Raparin Street - B Floor - Special ATM Area",
    "address": {
      "en": "Majidi Mall - Raparin Street - B Floor - Special ATM Area",
      "ar": "ماجدي مول - شارع رابرين -طابق B - مكان خاص للصرافات الالية",
      "ku": "شەقامی ڕاپەڕین - باڵەخانەی ماجیدی مۆڵ - نهۆمی B - شوێنی تایبەت بە ئامێرەکانی ATM"
    },
    "latitude": 35.564564,
    "longitude": 45.371365,
    "map_link": "https://maps.app.goo.gl/HxUhLskyShpjioCG9",
    "type": "ATM"
  },
  {
    "id": "ATM_15",
    "title": "Sharazoor District - Opposite Sharazoor Bank",
    "address": {
      "en": "Sharazoor District - Opposite Sharazoor Bank",
      "ar": "قضاء شارزوور - مقابل مصرف شارزوور",
      "ku": "قەزای شارەزوور - بەرامبەر بانکی شارەزوور"
    },
    "latitude": 35.318761,
    "longitude": 45.677123,
    "map_link": "https://maps.app.goo.gl/2bRVuqVRqijt41cp7",
    "type": "ATM"
  },
  {
    "id": "ATM_16",
    "title": "Chamchamal District - Near Chamchamal District Municipality",
    "address": {
      "en": "Chamchamal District - Near Chamchamal District Municipality",
      "ar": "قضاء جمجمال - قرب بلدیة قضاء جمجمال",
      "ku": "نزیک قایمقامیەتی قەزای چەمچەماڵ"
    },
    "latitude": 35.533102,
    "longitude": 44.831677,
    "map_link": "https://maps.app.goo.gl/jcybAQQnNkzfSxL86",
    "type": "ATM"
  },
  {
    "id": "ATM_17",
    "title": " Chamchamal District - Opposite Civil Defense",
    "address": {
      "en": " Chamchamal District - Opposite Civil Defense",
      "ar": " قضاء جمجمال - مقابل الدفاع المدني",
      "ku": "قەزای چەمچەماڵ - بەردەم بەرگری شارستانی"
    },
    "latitude": 35.523472,
    "longitude": 44.81799,
    "map_link": "https://maps.app.goo.gl/jEKUGkjWoZcFACH18",
    "type": "ATM"
  },
  {
    "id": "ATM_18",
    "title": "Ranya",
    "address": {
      "en": "Ranya",
      "ar": "ڕانیە، شەقامی رانیە-چوارقورنە، نزیک بەرێوەبەرایەتی گشتی شارەوانیەکانی ڕاپەڕین",
      "ku": "ڕانیە، شەقامی رانیە-چوارقورنە، نزیک بەرێوەبەرایەتی گشتی شارەوانیەکانی ڕاپەڕین"
    },
    "latitude": 36.24325,
    "longitude": 44.879028,
    "map_link": "https://www.google.com/maps?q=36.2432502918218,44.8790277999999",
    "type": "ATM"
  },
  {
    "id": "ATM_19",
    "title": "Chamchamal",
    "address": {
      "en": "Chamchamal",
      "ar": "چەمچەماڵ - نزیک سەرۆکایەتی زانکۆی چەرمۆ",
      "ku": "چەمچەماڵ - نزیک سەرۆکایەتی زانکۆی چەرمۆ"
    },
    "latitude": 35.535123,
    "longitude": 44.836914,
    "map_link": "https://www.google.com/maps?q=35.535123,44.836914",
    "type": "ATM"
  },
  {
    "id": "ATM_20",
    "title": "Chamchamal",
    "address": {
      "en": "Chamchamal",
      "ar": "چەمچەماڵ - نزیک بەرگری شارستانی چەمچەماڵ",
      "ku": "چەمچەماڵ - نزیک بەرگری شارستانی چەمچەماڵ"
    },
    "latitude": 35.523588,
    "longitude": 44.818017,
    "map_link": "https://www.google.com/maps?q=35.523588328575,44.8180170865425",
    "type": "ATM"
  },
  {
    "id": "ATM_21",
    "title": "Slemani,",
    "address": {
      "en": "Slemani,",
      "ar": "سلێمانی، شەقامی سالم، بەردەم سەرۆکایەتی شارەوانی سلێمانی",
      "ku": "سلێمانی، شەقامی سالم، بەردەم سەرۆکایەتی شارەوانی سلێمانی"
    },
    "latitude": 35.56279,
    "longitude": 45.40775,
    "map_link": "https://maps.app.goo.gl/Mn9UguNsdYcKi8dJ8",
    "type": "ATM"
  },
  {
    "id": "ATM_22",
    "title": "Slemani,",
    "address": {
      "en": "Slemani,",
      "ar": "سلێمانی، شەقامی سلێمانی - کەرکوک، بەرامبەر بینای پارێزگای سلێمانی",
      "ku": "سلێمانی، شەقامی سلێمانی - کەرکوک، بەرامبەر بینای پارێزگای سلێمانی"
    },
    "latitude": 35.567664,
    "longitude": 45.382235,
    "map_link": "https://maps.app.goo.gl/UEx5NX31DSREqaXR6",
    "type": "ATM"
  },
  {
    "id": "ATM_23",
    "title": "Sharazoor",
    "address": {
      "en": "Sharazoor",
      "ar": "شارەزوور - بەردەم بانکی شارەزوور",
      "ku": "شارەزوور - بەردەم بانکی شارەزوور"
    },
    "latitude": 35.318898,
    "longitude": 45.677308,
    "map_link": "https://www.google.com/maps?q=35.318898,45.677308",
    "type": "ATM"
  },
  {
    "id": "ATM_24",
    "title": "Kalar,",
    "address": {
      "en": "Kalar,",
      "ar": "سلێمانی، کەلار، جیهان بانک",
      "ku": "سلێمانی، کەلار، جیهان بانک"
    },
    "latitude": 34.611966,
    "longitude": 45.315841,
    "map_link": "https://maps.app.goo.gl/8JKJd1bqUR5bdTYv8",
    "type": "ATM"
  },
  {
    "id": "ATM_25",
    "title": "Slemani,",
    "address": {
      "en": "Slemani,",
      "ar": "سلێمانی، بەکرەجۆ، بەرامبەر فەرمانگەی دادنووسی سلێمانی",
      "ku": "سلێمانی، بەکرەجۆ، بەرامبەر فەرمانگەی دادنووسی سلێمانی"
    },
    "latitude": 35.558512,
    "longitude": 45.350146,
    "map_link": "https://maps.app.goo.gl/VGxT62saHyNTTRfe6",
    "type": "ATM"
  }
]