[
  {
    "title": "Kurdish",
    "address": {
      "en": "Kurdish",
      "ar": "پەیمانگای کلتوری کوردی",
      "ku": "پەیمانگای کلتوری کوردی"
    },
    "latitude": 35.56155,
    "longitude": 45.42936
  },
  {
    "title": "Blood",
    "address": {
      "en": "Blood",
      "ar": "بەرامبەر بانکی خوێن",
      "ku": "بەرامبەر بانکی خوێن"
    },
    "latitude": 35.564769,
    "longitude": 45.444579
  },
  {
    "title": "Salim",
    "address": {
      "en": "Salim",
      "ar": "شەقامی سالم، پەروەردەی سلێمانی",
      "ku": "شەقامی سالم، پەروەردەی سلێمانی"
    },
    "latitude": 35.565368,
    "longitude": 45.398944
  },
  {
    "title": "Malkandi",
    "address": {
      "en": "Malkandi",
      "ar": "بانکی مەڵکەنی",
      "ku": "بانکی مەڵکەنی"
    },
    "latitude": 35.580851,
    "longitude": 45.423549
  },
  {
    "title": "Goizha",
    "address": {
      "en": "Goizha",
      "ar": "شەقامی ابراهیم پاشا، قوتابخانەی گۆیژە",
      "ku": "شەقامی ابراهیم پاشا، قوتابخانەی گۆیژە"
    },
    "latitude": 35.556273,
    "longitude": 45.45115
  },
  {
    "title": "United",
    "address": {
      "en": "United",
      "ar": "سەروەری، قوتابخانەی US",
      "ku": "سەروەری، قوتابخانەی US"
    },
    "latitude": 35.583761,
    "longitude": 45.405194
  },
  {
    "title": "Halabja",
    "address": {
      "en": "Halabja",
      "ar": "شەقامی مەلیک مەحموود، نزیک هەڵەبجە گروپ",
      "ku": "شەقامی مەلیک مەحموود، نزیک هەڵەبجە گروپ"
    },
    "latitude": 35.548587,
    "longitude": 45.410105
  },
  {
    "title": "Tuyimalik",
    "address": {
      "en": "Tuyimalik",
      "ar": "تووی مەلیک - باخچەی مامۆستا فەرەیدوون علی امین",
      "ku": "تووی مەلیک - باخچەی مامۆستا فەرەیدوون علی امین"
    },
    "latitude": 35.572747,
    "longitude": 45.45684
  },
  {
    "title": "Mamostayan",
    "address": {
      "en": "Mamostayan",
      "ar": "مزگەوتی قازی محمد",
      "ku": "مزگەوتی قازی محمد"
    },
    "latitude": 35.568176,
    "longitude": 45.438953
  },
  {
    "title": "Sulaimany",
    "address": {
      "en": "Sulaimany",
      "ar": "شەقامی مەلیک مەحموود، نەخۆشخانەی ڤێتێرنەری",
      "ku": "شەقامی مەلیک مەحموود، نەخۆشخانەی ڤێتێرنەری"
    },
    "latitude": 35.580735,
    "longitude": 45.401385
  },
  {
    "title": "Public",
    "address": {
      "en": "Public",
      "ar": "باخی گشتی",
      "ku": "باخی گشتی"
    },
    "latitude": 35.556302,
    "longitude": 45.43375
  },
  {
    "title": "Tabeekh",
    "address": {
      "en": "Tabeekh",
      "ar": "شەقامی سالم، مطعم طبیخ",
      "ku": "شەقامی سالم، مطعم طبیخ"
    },
    "latitude": 35.565888,
    "longitude": 45.394243
  },
  {
    "title": "National",
    "address": {
      "en": "National",
      "ar": "کانی با، پەیمانگای ناشناڵ",
      "ku": "کانی با، پەیمانگای ناشناڵ"
    },
    "latitude": 35.536714,
    "longitude": 45.46694
  },
  {
    "title": "Elderly",
    "address": {
      "en": "Elderly",
      "ar": "بەکرەجۆ، بەڕێوبەرایەتی کار و کاروباری کۆمەڵایەتی",
      "ku": "بەکرەجۆ، بەڕێوبەرایەتی کار و کاروباری کۆمەڵایەتی"
    },
    "latitude": 35.553716,
    "longitude": 45.363938
  },
  {
    "title": "Dokan",
    "address": {
      "en": "Dokan",
      "ar": "دوکان - هۆڵی شەهیذ ڕەسول حەمە زێڕ",
      "ku": "دوکان - هۆڵی شەهیذ ڕەسول حەمە زێڕ"
    },
    "latitude": 35.93222,
    "longitude": 44.96672
  }
]
