[
  {
    "id": "ATM_1",
    "title": "Kurdish",
    "address": {
      "en": "Kurdish",
      "ar": "پەیمانگای کلتوری کوردی",
      "ku": "پەیمانگای کلتوری کوردی"
    },
    "latitude": 35.56155,
    "longitude": 45.42936,
    "map_link": "https://maps.app.goo.gl/eDrFKjA8WuytdZhD9",
    "type": "ATM"
  },
  {
    "id": "ATM_2",
    "title": "Blood",
    "address": {
      "en": "Blood",
      "ar": "بەرامبەر بانکی خوێن",
      "ku": "بەرامبەر بانکی خوێن"
    },
    "latitude": 35.564769,
    "longitude": 45.444579,
    "map_link": "https://maps.app.goo.gl/d9pnq3GppNtzkJ7f7",
    "type": "ATM"
  },
  {
    "id": "ATM_3",
    "title": "Salim",
    "address": {
      "en": "Salim",
      "ar": "شەقامی سالم، پەروەردەی سلێمانی",
      "ku": "شەقامی سالم، پەروەردەی سلێمانی"
    },
    "latitude": 35.565368,
    "longitude": 45.398944,
    "map_link": "https://maps.app.goo.gl/1b5Y6XmaxU8Z8Ajx9",
    "type": "ATM"
  },
  {
    "id": "ATM_4",
    "title": "Malkandi",
    "address": {
      "en": "Malkandi",
      "ar": "بانکی مەڵکەنی",
      "ku": "بانکی مەڵکەنی"
    },
    "latitude": 35.580851,
    "longitude": 45.423549,
    "map_link": "https://maps.app.goo.gl/P91Lb5PgirgsVbSS8",
    "type": "ATM"
  },
  {
    "id": "ATM_5",
    "title": "Goizha",
    "address": {
      "en": "Goizha",
      "ar": "شەقامی ابراهیم پاشا، قوتابخانەی گۆیژە",
      "ku": "شەقامی ابراهیم پاشا، قوتابخانەی گۆیژە"
    },
    "latitude": 35.556273,
    "longitude": 45.45115,
    "map_link": "https://maps.app.goo.gl/41J5U3CHLb1o8nzo9",
    "type": "ATM"
  },
  {
    "id": "ATM_6",
    "title": "United",
    "address": {
      "en": "United",
      "ar": "سەروەری، قوتابخانەی US",
      "ku": "سەروەری، قوتابخانەی US"
    },
    "latitude": 35.583761,
    "longitude": 45.405194,
    "map_link": "https://maps.app.goo.gl/iUWJzN7VURfkGCxi9",
    "type": "ATM"
  },
  {
    "id": "ATM_7",
    "title": "Halabja",
    "address": {
      "en": "Halabja",
      "ar": "شەقامی مەلیک مەحموود، نزیک هەڵەبجە گروپ",
      "ku": "شەقامی مەلیک مەحموود، نزیک هەڵەبجە گروپ"
    },
    "latitude": 35.548587,
    "longitude": 45.410105,
    "map_link": "https://maps.app.goo.gl/6gQjsFGAPWvm5Hdv6",
    "type": "ATM"
  },
  {
    "id": "ATM_8",
    "title": "Tuyimalik",
    "address": {
      "en": "Tuyimalik",
      "ar": "تووی مەلیک - باخچەی مامۆستا فەرەیدوون علی امین",
      "ku": "تووی مەلیک - باخچەی مامۆستا فەرەیدوون علی امین"
    },
    "latitude": 35.572747,
    "longitude": 45.45684,
    "map_link": "https://maps.app.goo.gl/oUZM1YeLsw9jkvjo8",
    "type": "ATM"
  },
  {
    "id": "ATM_9",
    "title": "Mamostayan",
    "address": {
      "en": "Mamostayan",
      "ar": "مزگەوتی قازی محمد",
      "ku": "مزگەوتی قازی محمد"
    },
    "latitude": 35.568176,
    "longitude": 45.438953,
    "map_link": "https://maps.app.goo.gl/iU5QoTq22yHBudvK7",
    "type": "ATM"
  },
  {
    "id": "ATM_10",
    "title": "Sulaimany",
    "address": {
      "en": "Sulaimany",
      "ar": "شەقامی مەلیک مەحموود، نەخۆشخانەی ڤێتێرنەری",
      "ku": "شەقامی مەلیک مەحموود، نەخۆشخانەی ڤێتێرنەری"
    },
    "latitude": 35.580735,
    "longitude": 45.401385,
    "map_link": "https://maps.app.goo.gl/orqGf1DE9RpySzq29",
    "type": "ATM"
  },
  {
    "id": "ATM_11",
    "title": "Public",
    "address": {
      "en": "Public",
      "ar": "باخی گشتی",
      "ku": "باخی گشتی"
    },
    "latitude": 35.556302,
    "longitude": 45.43375,
    "map_link": "https://maps.app.goo.gl/cGHCceV888qR8GWt7",
    "type": "ATM"
  },
  {
    "id": "ATM_12",
    "title": "Tabeekh",
    "address": {
      "en": "Tabeekh",
      "ar": "شەقامی سالم، مطعم طبیخ",
      "ku": "شەقامی سالم، مطعم طبیخ"
    },
    "latitude": 35.565888,
    "longitude": 45.394243,
    "map_link": "https://maps.app.goo.gl/iQxGfPjfpprgYpyTA",
    "type": "ATM"
  },
  {
    "id": "ATM_13",
    "title": "National",
    "address": {
      "en": "National",
      "ar": "کانی با، پەیمانگای ناشناڵ",
      "ku": "کانی با، پەیمانگای ناشناڵ"
    },
    "latitude": 35.536714,
    "longitude": 45.46694,
    "map_link": "https://maps.app.goo.gl/2PyykLRKQqE1EhAE9",
    "type": "ATM"
  },
  {
    "id": "ATM_14",
    "title": "Elderly",
    "address": {
      "en": "Elderly",
      "ar": "بەکرەجۆ، بەڕێوبەرایەتی کار و کاروباری کۆمەڵایەتی",
      "ku": "بەکرەجۆ، بەڕێوبەرایەتی کار و کاروباری کۆمەڵایەتی"
    },
    "latitude": 35.553716,
    "longitude": 45.363938,
    "map_link": "https://maps.app.goo.gl/1wesnGsjXXyAio4D6",
    "type": "ATM"
  },
  {
    "id": "ATM_15",
    "title": "Dokan",
    "address": {
      "en": "Dokan",
      "ar": "دوکان - هۆڵی شەهیذ ڕەسول حەمە زێڕ",
      "ku": "دوکان - هۆڵی شەهیذ ڕەسول حەمە زێڕ"
    },
    "latitude": 35.93222,
    "longitude": 44.96672,
    "map_link": "https://www.google.com/maps?q=35.932222,44.966722",
    "type": "ATM"
  }
]