[
  {
    "id": "ATM_1",
    "title": "رويال مول",
    "address": {
      "en": "رويال مول"
    },
    "latitude": 36.20202930107593,
    "longitude": 44.01763271078297
  },
  {
    "id": "ATM_2",
    "title": "شركة كار كروب  HQ",
    "address": {
      "en": "شركة كار كروب  HQ"
    },
    "latitude": 36.18649930193928,
    "longitude": 43.96829871078231
  },
  {
    "id": "ATM_3",
    "title": "صراف المبنى الرئيسي اسياسيل - اربيل",
    "address": {
      "en": "صراف المبنى الرئيسي اسياسيل - اربيل"
    },
    "latitude": 36.18141668008068,
    "longitude": 43.99086691527271
  },
  {
    "id": "ATM_4",
    "title": "صراف آلي شركة تويوتا العراق - اربيل",
    "address": {
      "en": "صراف آلي شركة تويوتا العراق - اربيل"
    },
    "latitude": 36.17614820519359,
    "longitude": 43.93934188417638
  },
  {
    "id": "ATM_5",
    "title": "صراف آلي مشروع حسابي - شيرواني",
    "address": {
      "en": "صراف آلي مشروع حسابي - شيرواني"
    },
    "latitude": 36.178079972430936,
    "longitude": 44.008791076414134
  },
  {
    "id": "ATM_6",
    "title": "صراف آلي مشروع حسابي - طريق الموصل",
    "address": {
      "en": "صراف آلي مشروع حسابي - طريق الموصل"
    },
    "latitude": 36.184332572429156,
    "longitude": 43.980723076414414
  },
  {
    "id": "ATM_7",
    "title": "صراف آلي مشروع حسابي -شارع 60",
    "address": {
      "en": "صراف آلي مشروع حسابي -شارع 60"
    },
    "latitude": 36.1996412724245,
    "longitude": 43.995509476414846
  },
  {
    "id": "ATM_8",
    "title": "صراف آلي مشروع حسابي -شارع كويا",
    "address": {
      "en": "صراف آلي مشروع حسابي -شارع كويا"
    },
    "latitude": 36.207585972421995,
    "longitude": 44.13056907641521
  },
  {
    "id": "ATM_9",
    "title": "صراف فاميلي مول اربيل",
    "address": {
      "en": "صراف فاميلي مول اربيل"
    },
    "latitude": 36.20980558007452,
    "longitude": 44.04497801527337
  },
  {
    "id": "ATM_10",
    "title": "صراف فرع اربيل",
    "address": {
      "en": "صراف فرع اربيل"
    },
    "latitude": 36.22030558007199,
    "longitude": 43.988755715273705
  },
  {
    "id": "ATM_11",
    "title": "صراف ماجدي مول اربيل",
    "address": {
      "en": "صراف ماجدي مول اربيل"
    },
    "latitude": 36.19572888007761,
    "longitude": 44.06671128497254
  },
  {
    "id": "ATM_12",
    "title": "صراف مبنى بعثة الامم المتحدة 1 - اربيل",
    "address": {
      "en": "صراف مبنى بعثة الامم المتحدة 1 - اربيل"
    },
    "latitude": 36.21138888007415,
    "longitude": 43.96892241527354
  },
  {
    "id": "ATM_13",
    "title": "صراف مبنى بعثة الامم المتحدة 2 - اربيل",
    "address": {
      "en": "صراف مبنى بعثة الامم المتحدة 2 - اربيل"
    },
    "latitude": 36.21138888007415,
    "longitude": 43.96892241527354
  },
  {
    "id": "ATM_14",
    "title": "فرع اربيل 3 دينار",
    "address": {
      "en": "فرع اربيل 3 دينار"
    },
    "latitude": 36.220319300058634,
    "longitude": 43.98835371078402
  },
  {
    "id": "ATM_15",
    "title": "فرع اربيل دولار",
    "address": {
      "en": "فرع اربيل دولار"
    },
    "latitude": 36.220319300058634,
    "longitude": 43.98835371078402
  },
  {
    "id": "ATM_16",
    "title": "فرع الاسكان",
    "address": {
      "en": "فرع الاسكان"
    },
    "latitude": 36.20628210083938,
    "longitude": 43.99625301078312
  },
  {
    "id": "ATM_17",
    "title": "فرع الاسكان",
    "address": {
      "en": "فرع الاسكان"
    },
    "latitude": 36.20628210083938,
    "longitude": 43.99625301078312
  },
  {
    "id": "ATM_18",
    "title": "فندق بريستوريا",
    "address": {
      "en": "فندق بريستوريا"
    },
    "latitude": 36.14749750410631,
    "longitude": 44.01612451078023
  },
  {
    "id": "ATM_19",
    "title": "مجدي مول اربيل",
    "address": {
      "en": "مجدي مول اربيل"
    },
    "latitude": 36.195733201426094,
    "longitude": 44.06194231078268
  }
]
