[
  {
    "title": "فندق بابل 2",
    "address": {
      "en": "فندق بابل 2"
    },
    "latitude": 33.29120745742169,
    "longitude": 44.38766971064927
  },
  {
    "title": "صراف آلي محطة كاش ماني",
    "address": {
      "en": "صراف آلي محطة كاش ماني"
    },
    "latitude": 33.32200745593721,
    "longitude": 44.19445107471976
  },
  {
    "title": "أسواق زمان الطيب",
    "address": {
      "en": "أسواق زمان الطيب"
    },
    "latitude": 33.402938451626305,
    "longitude": 44.40042971065426
  },
  {
    "title": "الأدارة العامة",
    "address": {
      "en": "الأدارة العامة"
    },
    "latitude": 33.313430456270225,
    "longitude": 44.4199197106503
  },
  {
    "title": "التجهيزات الزراعية",
    "address": {
      "en": "التجهيزات الزراعية"
    },
    "latitude": 33.37157046074015,
    "longitude": 44.38561131453532
  },
  {
    "title": "الجامعة الامريكية في بغداد",
    "address": {
      "en": "الجامعة الامريكية في بغداد"
    },
    "latitude": 33.28184745790646,
    "longitude": 44.25263371064902
  },
  {
    "title": "الخطوط الجوية العراقية",
    "address": {
      "en": "الخطوط الجوية العراقية"
    },
    "latitude": 33.258048459138465,
    "longitude": 44.23326071064792
  },
  {
    "title": "الشركة العامة للاتصالات",
    "address": {
      "en": "الشركة العامة للاتصالات"
    },
    "latitude": 33.31898845598225,
    "longitude": 44.412033710650576
  },
  {
    "title": "الشركة العامة للنقل البري",
    "address": {
      "en": "الشركة العامة للنقل البري"
    },
    "latitude": 33.34406845468199,
    "longitude": 44.41440271065152
  },
  {
    "title": "الفرع الرئيسي  1",
    "address": {
      "en": "الفرع الرئيسي  1"
    },
    "latitude": 33.31341668081332,
    "longitude": 44.424688684804195
  },
  {
    "title": "المديرية العامة لنقل الطاقة المنطقة الوسطى",
    "address": {
      "en": "المديرية العامة لنقل الطاقة المنطقة الوسطى"
    },
    "latitude": 33.370214453325474,
    "longitude": 44.39893971065276
  },
  {
    "title": "النادي الثقافي النفطي",
    "address": {
      "en": "النادي الثقافي النفطي"
    },
    "latitude": 33.31999445593024,
    "longitude": 44.4234897106505
  },
  {
    "title": "شركة ببيسي التاجي",
    "address": {
      "en": "شركة ببيسي التاجي"
    },
    "latitude": 33.46437444843252,
    "longitude": 44.27729971065707
  },
  {
    "title": "شركة توزيع المنتجات النفطية",
    "address": {
      "en": "شركة توزيع المنتجات النفطية"
    },
    "latitude": 33.279904458007046,
    "longitude": 44.43911971064894
  },
  {
    "title": "شركة نهج العراق",
    "address": {
      "en": "شركة نهج العراق"
    },
    "latitude": 33.336714455063365,
    "longitude": 44.41629971065142
  },
  {
    "title": "صحارى مول",
    "address": {
      "en": "صحارى مول"
    },
    "latitude": 33.25139045948289,
    "longitude": 44.34972371064754
  },
  {
    "title": "صراف أسواق فري تايم",
    "address": {
      "en": "صراف أسواق فري تايم"
    },
    "latitude": 33.38302898079328,
    "longitude": 44.322334685056575
  },
  {
    "title": "صراف البنك المركزي العراقي 1",
    "address": {
      "en": "صراف البنك المركزي العراقي 1"
    },
    "latitude": 33.33747218080638,
    "longitude": 44.391339115196516
  },
  {
    "title": "صراف البنك المركزي العراقي- الجادرية",
    "address": {
      "en": "صراف البنك المركزي العراقي- الجادرية"
    },
    "latitude": 33.2880277808207,
    "longitude": 44.384672415195254
  },
  {
    "title": "صراف الشركة العامة للمعدات الهندسية الثقيلة",
    "address": {
      "en": "صراف الشركة العامة للمعدات الهندسية الثقيلة"
    },
    "latitude": 33.271861080825424,
    "longitude": 44.424866915194784
  },
  {
    "title": "صراف الفرع الرئيسي 2",
    "address": {
      "en": "صراف الفرع الرئيسي 2"
    },
    "latitude": 33.31341668081335,
    "longitude": 44.42031131519587
  },
  {
    "title": "صراف المبنى الرئيسي اسياسيل 1 - المنصور",
    "address": {
      "en": "صراف المبنى الرئيسي اسياسيل 1 - المنصور"
    },
    "latitude": 33.3062221808155,
    "longitude": 44.33753351519554
  },
  {
    "title": "صراف المديرية العامة لأنتاج الطاقة الكهربائية للمنطقة الوسطى",
    "address": {
      "en": "صراف المديرية العامة لأنتاج الطاقة الكهربائية للمنطقة الوسطى"
    },
    "latitude": 33.33152778080808,
    "longitude": 44.40795021519637
  },
  {
    "title": "صراف المنصور مول",
    "address": {
      "en": "صراف المنصور مول"
    },
    "latitude": 33.32091668081113,
    "longitude": 44.350616915196014
  },
  {
    "title": "صراف آلي أسواق القلعة",
    "address": {
      "en": "صراف آلي أسواق القلعة"
    },
    "latitude": 33.28268935071263,
    "longitude": 44.294712396345496
  },
  {
    "title": "صراف آلي الشركة العامة لأدارة النقل الخاص",
    "address": {
      "en": "صراف آلي الشركة العامة لأدارة النقل الخاص"
    },
    "latitude": 33.3499874544863,
    "longitude": 44.352829074721164
  },
  {
    "title": "صراف آلي الشركة العامة لتنفيذ مشاريع النقل و المواصلات",
    "address": {
      "en": "صراف آلي الشركة العامة لتنفيذ مشاريع النقل و المواصلات"
    },
    "latitude": 33.3439344548003,
    "longitude": 44.35772107472076
  },
  {
    "title": "صراف آلي الشركة العامة لفحص و تأهيل المنظومات الكهربائية",
    "address": {
      "en": "صراف آلي الشركة العامة لفحص و تأهيل المنظومات الكهربائية"
    },
    "latitude": 33.33616145520341,
    "longitude": 44.42125807472055
  },
  {
    "title": "صراف آلي الشركة العامة للمنتجات الغذائية",
    "address": {
      "en": "صراف آلي الشركة العامة للمنتجات الغذائية"
    },
    "latitude": 33.29172545750607,
    "longitude": 44.446230074718315
  },
  {
    "title": "صراف آلي الشركة العامة للمنتجات الغذائية / مصنع المأمون",
    "address": {
      "en": "صراف آلي الشركة العامة للمنتجات الغذائية / مصنع المأمون"
    },
    "latitude": 33.29903245712777,
    "longitude": 44.44945507471868
  },
  {
    "title": "صراف آلي العيادات الشعبية",
    "address": {
      "en": "صراف آلي العيادات الشعبية"
    },
    "latitude": 33.34009445499703,
    "longitude": 44.337075076182494
  },
  {
    "title": "صراف آلي تكسي كريم",
    "address": {
      "en": "صراف آلي تكسي كريم"
    },
    "latitude": 33.30815341580115,
    "longitude": 44.342429454519156
  },
  {
    "title": "صراف آلي دائرة التدريب و بحوث الطاقة",
    "address": {
      "en": "صراف آلي دائرة التدريب و بحوث الطاقة"
    },
    "latitude": 33.36157645388509,
    "longitude": 44.3923120747216
  },
  {
    "title": "صراف آلي دائرة التشغيل والتحكم",
    "address": {
      "en": "صراف آلي دائرة التشغيل والتحكم"
    },
    "latitude": 33.31194445645609,
    "longitude": 44.52008507618163
  },
  {
    "title": "صراف آلي دائرة التقاعد و الضمان الاجتماعي للعمال",
    "address": {
      "en": "صراف آلي دائرة التقاعد و الضمان الاجتماعي للعمال"
    },
    "latitude": 33.37130345338039,
    "longitude": 44.396832074722084
  },
  {
    "title": "صراف آلي دائرة الطب العدلي",
    "address": {
      "en": "صراف آلي دائرة الطب العدلي"
    },
    "latitude": 33.328661119337475,
    "longitude": 44.479157170820855
  },
  {
    "title": "صراف آلي شركة الشرق الأوسط لصناعة مواد التعبئة والتغليف",
    "address": {
      "en": "صراف آلي شركة الشرق الأوسط لصناعة مواد التعبئة والتغليف"
    },
    "latitude": 33.2374644676734,
    "longitude": 44.457511314531466
  },
  {
    "title": "صراف آلي شركة تسويق النفط",
    "address": {
      "en": "صراف آلي شركة تسويق النفط"
    },
    "latitude": 33.33849245508253,
    "longitude": 44.45037907472061
  },
  {
    "title": "صراف آلي شركة سوبر سيل",
    "address": {
      "en": "صراف آلي شركة سوبر سيل"
    },
    "latitude": 33.31007445655298,
    "longitude": 44.31029507626852
  },
  {
    "title": "صراف آلي شركة مابين النهرين العامة للبذور",
    "address": {
      "en": "صراف آلي شركة مابين النهرين العامة للبذور"
    },
    "latitude": 33.30968145657354,
    "longitude": 44.4285840761816
  },
  {
    "title": "صراف آلي شركة وادي الرافدين",
    "address": {
      "en": "صراف آلي شركة وادي الرافدين"
    },
    "latitude": 33.46561344847977,
    "longitude": 44.3781730747266
  },
  {
    "title": "صراف آلي فرع زيونة 1",
    "address": {
      "en": "صراف آلي فرع زيونة 1"
    },
    "latitude": 33.32636628080958,
    "longitude": 44.46033758565518
  },
  {
    "title": "صراف آلي فندق بغداد",
    "address": {
      "en": "صراف آلي فندق بغداد"
    },
    "latitude": 33.31868845610652,
    "longitude": 44.41250607626861
  },
  {
    "title": "صراف آلي محطة الشعلة",
    "address": {
      "en": "صراف آلي محطة الشعلة"
    },
    "latitude": 33.35959245398541,
    "longitude": 44.28149007627027
  },
  {
    "title": "صراف آلي محطة العامرية",
    "address": {
      "en": "صراف آلي محطة العامرية"
    },
    "latitude": 33.3019844569722,
    "longitude": 44.29453507626827
  },
  {
    "title": "صراف آلي محطة جنوب بغداد الحرارية",
    "address": {
      "en": "صراف آلي محطة جنوب بغداد الحرارية"
    },
    "latitude": 33.28948445762228,
    "longitude": 44.45020507471816
  },
  {
    "title": "صراف آلي محطة حي الجهاد",
    "address": {
      "en": "صراف آلي محطة حي الجهاد"
    },
    "latitude": 33.271694458540736,
    "longitude": 44.28254507626726
  },
  {
    "title": "صراف آلي محطة كهرباء جنوب بغداد الغازية الثانية",
    "address": {
      "en": "صراف آلي محطة كهرباء جنوب بغداد الغازية الثانية"
    },
    "latitude": 33.2875,
    "longitude": 44.4592222
  },
  {
    "title": "صراف آلي مركز البحث والتطوير النفطي",
    "address": {
      "en": "صراف آلي مركز البحث والتطوير النفطي"
    },
    "latitude": 33.44855844936689,
    "longitude": 44.37940307472578
  },
  {
    "title": "صراف آلي مستشفى الكرخ للولادة",
    "address": {
      "en": "صراف آلي مستشفى الكرخ للولادة"
    },
    "latitude": 33.33864745507442,
    "longitude": 44.38235807472051
  },
  {
    "title": "صراف آلي معهد التدريب النفطي",
    "address": {
      "en": "صراف آلي معهد التدريب النفطي"
    },
    "latitude": 33.37048445342293,
    "longitude": 44.39368607472213
  },
  {
    "title": "صراف دريم ستي مول",
    "address": {
      "en": "صراف دريم ستي مول"
    },
    "latitude": 33.318527780811856,
    "longitude": 44.44311691519598
  },
  {
    "title": "صراف سوق العراق للأوراق المالية",
    "address": {
      "en": "صراف سوق العراق للأوراق المالية"
    },
    "latitude": 33.306749980815226,
    "longitude": 44.42431131519577
  },
  {
    "title": "صراف شركة بغداد للمشروبات الغازية 1",
    "address": {
      "en": "صراف شركة بغداد للمشروبات الغازية 1"
    },
    "latitude": 33.237638880835526,
    "longitude": 44.46292241519388
  },
  {
    "title": "صراف شركة خطوط الأنابيب النفطية 1",
    "address": {
      "en": "صراف شركة خطوط الأنابيب النفطية 1"
    },
    "latitude": 33.279888880823094,
    "longitude": 44.439505715195025
  },
  {
    "title": "صراف شركة زين العراق للأتصالات",
    "address": {
      "en": "صراف شركة زين العراق للأتصالات"
    },
    "latitude": 33.28208328082248,
    "longitude": 44.37908911519497
  },
  {
    "title": "صراف فرع الجادرية 1",
    "address": {
      "en": "صراف فرع الجادرية 1"
    },
    "latitude": 33.28319438082208,
    "longitude": 44.39239461519504
  },
  {
    "title": "صراف فرع العرصات",
    "address": {
      "en": "صراف فرع العرصات"
    },
    "latitude": 33.29986107344946,
    "longitude": 44.43098067598878
  },
  {
    "title": "صراف فرع الكاظمية",
    "address": {
      "en": "صراف فرع الكاظمية"
    },
    "latitude": 33.36674998079799,
    "longitude": 44.342394615197186
  },
  {
    "title": "صراف فرع المنصور 2",
    "address": {
      "en": "صراف فرع المنصور 2"
    },
    "latitude": 33.3248332808101,
    "longitude": 44.34495021519616
  },
  {
    "title": "صراف فرع المنصور 2",
    "address": {
      "en": "صراف فرع المنصور 2"
    },
    "latitude": 33.29672218081826,
    "longitude": 44.28856131519531
  },
  {
    "title": "صراف فرع جميلة",
    "address": {
      "en": "صراف فرع جميلة"
    },
    "latitude": 33.37169438079655,
    "longitude": 44.41950571519738
  },
  {
    "title": "صراف فندق بابل",
    "address": {
      "en": "صراف فندق بابل"
    },
    "latitude": 33.291194380819775,
    "longitude": 44.388061315195145
  },
  {
    "title": "صراف ماي ماركت مول",
    "address": {
      "en": "صراف ماي ماركت مول"
    },
    "latitude": 33.37413888079588,
    "longitude": 44.368394615197396
  },
  {
    "title": "صراف مبنى بعثة الامم المتحدة 1 - المنطقة الخضراء",
    "address": {
      "en": "صراف مبنى بعثة الامم المتحدة 1 - المنطقة الخضراء"
    },
    "latitude": 33.31958328081173,
    "longitude": 44.40339461519589
  },
  {
    "title": "صراف محطة البياع",
    "address": {
      "en": "صراف محطة البياع"
    },
    "latitude": 33.26758775875637,
    "longitude": 44.33509177451091
  },
  {
    "title": "صراف محطة كهرباء الدورة الغازية",
    "address": {
      "en": "صراف محطة كهرباء الدورة الغازية"
    },
    "latitude": 33.25855558082927,
    "longitude": 44.37297801519434
  },
  {
    "title": "صراف وزارة الأعمار والأسكان",
    "address": {
      "en": "صراف وزارة الأعمار والأسكان"
    },
    "latitude": 33.324898463155854,
    "longitude": 44.38883168546587
  },
  {
    "title": "صراف وزارة التخطيط 1",
    "address": {
      "en": "صراف وزارة التخطيط 1"
    },
    "latitude": 33.32238888081085,
    "longitude": 44.400144615196
  },
  {
    "title": "صراف وزارة الصحة",
    "address": {
      "en": "صراف وزارة الصحة"
    },
    "latitude": 33.34741668080349,
    "longitude": 44.379172415196656
  },
  {
    "title": "صراف وزارة العمل 1",
    "address": {
      "en": "صراف وزارة العمل 1"
    },
    "latitude": 33.37324998079602,
    "longitude": 44.396005715197376
  },
  {
    "title": "صراف وزارة الكهرباء",
    "address": {
      "en": "صراف وزارة الكهرباء"
    },
    "latitude": 33.320305580811386,
    "longitude": 44.366700215195884
  },
  {
    "title": "صراف وزارة النفط 1",
    "address": {
      "en": "صراف وزارة النفط 1"
    },
    "latitude": 33.34074998080552,
    "longitude": 44.43145021519659
  },
  {
    "title": "صراف وزارة النقل",
    "address": {
      "en": "صراف وزارة النقل"
    },
    "latitude": 33.34758328080353,
    "longitude": 44.441589115196784
  },
  {
    "title": "صراف وزارة الهجرة والمهجرين",
    "address": {
      "en": "صراف وزارة الهجرة والمهجرين"
    },
    "latitude": 33.31971346342398,
    "longitude": 44.401599685466124
  },
  {
    "title": "فرع اليرموك 1",
    "address": {
      "en": "فرع اليرموك 1"
    },
    "latitude": 33.30033915694873,
    "longitude": 44.33570201064973
  },
  {
    "title": "فرع بغداد مول",
    "address": {
      "en": "فرع بغداد مول"
    },
    "latitude": 33.31166668081388,
    "longitude": 44.36242241519581
  },
  {
    "title": "كرزات الموصل",
    "address": {
      "en": "كرزات الموصل"
    },
    "latitude": 33.29672545713598,
    "longitude": 44.28816971064956
  },
  {
    "title": "محطة ابو دشير - جنة العراق",
    "address": {
      "en": "محطة ابو دشير - جنة العراق"
    },
    "latitude": 33.221888899999996,
    "longitude": 44.3836389
  },
  {
    "title": "محطة البلديات - جنة العراق",
    "address": {
      "en": "محطة البلديات - جنة العراق"
    },
    "latitude": 33.33130845534354,
    "longitude": 44.47640571065105
  },
  {
    "title": "محطة الحرية - جنة العراق",
    "address": {
      "en": "محطة الحرية - جنة العراق"
    },
    "latitude": 33.34893645442937,
    "longitude": 44.31331571065185
  },
  {
    "title": "محطة الدورة الحرارية",
    "address": {
      "en": "محطة الدورة الحرارية"
    },
    "latitude": 33.25855465911216,
    "longitude": 44.37259511064792
  },
  {
    "title": "محطة الزعفرانية - جنة العراق",
    "address": {
      "en": "محطة الزعفرانية - جنة العراق"
    },
    "latitude": 33.26314485887459,
    "longitude": 44.47001121064802
  },
  {
    "title": "محطة النهضة - جنة العراق",
    "address": {
      "en": "محطة النهضة - جنة العراق"
    },
    "latitude": 33.348952454428556,
    "longitude": 44.41106371065197
  },
  {
    "title": "محطة بغداد الجديدة - جنة العراق",
    "address": {
      "en": "محطة بغداد الجديدة - جنة العراق"
    },
    "latitude": 33.315308456173064,
    "longitude": 44.47790271065031
  },
  {
    "title": "محطة حي الاعلام - جنة العراق",
    "address": {
      "en": "محطة حي الاعلام - جنة العراق"
    },
    "latitude": 33.23909746011892,
    "longitude": 44.33324571064688
  },
  {
    "title": "محطة حي اور - جنة العراق",
    "address": {
      "en": "محطة حي اور - جنة العراق"
    },
    "latitude": 33.39856745185334,
    "longitude": 44.41191671065395
  },
  {
    "title": "مديرية توزيع كهرباء الكرخ",
    "address": {
      "en": "مديرية توزيع كهرباء الكرخ"
    },
    "latitude": 33.33973345490677,
    "longitude": 44.33728471065142
  },
  {
    "title": "مستشفى مارينا",
    "address": {
      "en": "مستشفى مارينا"
    },
    "latitude": 33.37989545282288,
    "longitude": 44.410504710653086
  },
  {
    "title": "مسواك",
    "address": {
      "en": "مسواك"
    },
    "latitude": 33.26445245880701,
    "longitude": 44.35998171064812
  },
  {
    "title": "مشاريع الري و البزل",
    "address": {
      "en": "مشاريع الري و البزل"
    },
    "latitude": 33.235924460283016,
    "longitude": 44.36394971064694
  },
  {
    "title": "مول القاهرة",
    "address": {
      "en": "مول القاهرة"
    },
    "latitude": 33.374115453122975,
    "longitude": 44.38786571065298
  },
  {
    "title": "مول بابلون",
    "address": {
      "en": "مول بابلون"
    },
    "latitude": 33.301608356882916,
    "longitude": 44.3915261106497
  },
  {
    "title": "وزارة التخطيط 3",
    "address": {
      "en": "وزارة التخطيط 3"
    },
    "latitude": 33.32240045580542,
    "longitude": 44.39974371065079
  },
  {
    "title": "وزارة الصحة 2",
    "address": {
      "en": "وزارة الصحة 2"
    },
    "latitude": 33.34741045450863,
    "longitude": 44.378766710651874
  },
  {
    "title": "وزارة الكهرباء 2",
    "address": {
      "en": "وزارة الكهرباء 2"
    },
    "latitude": 33.320312455913616,
    "longitude": 44.366305710650714
  },
  {
    "title": "وزارة النفط 3",
    "address": {
      "en": "وزارة النفط 3"
    },
    "latitude": 33.340758454853734,
    "longitude": 44.43104371065141
  },
  {
    "title": "وزارة النقل",
    "address": {
      "en": "وزارة النقل"
    },
    "latitude": 33.347577454499906,
    "longitude": 44.441209710651854
  },
  {
    "title": "وزارة الهجرة والمهجرين",
    "address": {
      "en": "وزارة الهجرة والمهجرين"
    },
    "latitude": 33.31972665594408,
    "longitude": 44.39683641065054
  },
  {
    "title": "وفر للتسوق المنزلي",
    "address": {
      "en": "وفر للتسوق المنزلي"
    },
    "latitude": 33.29419145726713,
    "longitude": 44.43389571064936
  },
  {
    "title": "ياسر و عمر للهدايا",
    "address": {
      "en": "ياسر و عمر للهدايا"
    },
    "latitude": 33.30967145646519,
    "longitude": 44.321531710650184
  }
]
