[
  {
    "title": "Ankawa Asayish Office",
    "address": {
      "en": "Ankawa Asayish Office"
    },
    "latitude": 36.22242064094361,
    "longitude": 43.997059053012855
  },
  {
    "title": "مديرية مرور سوران",
    "address": {
      "en": "مديرية مرور سوران"
    },
    "latitude": 36.69444569148676,
    "longitude": 44.512469953275286
  },
  {
    "title": "Pirmam Gulan Road",
    "address": {
      "en": "Pirmam Gulan Road"
    },
    "latitude": 36.39283969862767,
    "longitude": 44.18759572321649
  },
  {
    "title": "Rwandz stadium",
    "address": {
      "en": "Rwandz stadium"
    },
    "latitude": 36.61118334464741,
    "longitude": 44.518634186505004
  },
  {
    "title": "Choman Stadium",
    "address": {
      "en": "Choman Stadium"
    },
    "latitude": 36.63730244594618,
    "longitude": 44.8896218250657
  },
  {
    "title": "Shaqlawa Sabirawa",
    "address": {
      "en": "Shaqlawa Sabirawa"
    },
    "latitude": 36.39135839049644,
    "longitude": 44.343642508669994
  },
  {
    "title": "Khabat Youth Center",
    "address": {
      "en": "Khabat Youth Center"
    },
    "latitude": 36.26932770143744,
    "longitude": 43.66746718650499
  },
  {
    "title": "Harir Electricity Station",
    "address": {
      "en": "Harir Electricity Station"
    },
    "latitude": 36.54920922336508,
    "longitude": 44.35823164998951
  },
  {
    "title": "Mergasur National Library",
    "address": {
      "en": "Mergasur National Library"
    },
    "latitude": 36.842893941193445,
    "longitude": 44.30083936933311
  },
  {
    "title": "Mergasur District Office",
    "address": {
      "en": "Mergasur District Office"
    },
    "latitude": 36.83912421203664,
    "longitude": 44.300559193108796
  },
  {
    "title": "Banaslawa Football Stadium",
    "address": {
      "en": "Banaslawa Football Stadium"
    },
    "latitude": 36.1596712575835,
    "longitude": 44.109502457670004
  },
  {
    "title": "Diana",
    "address": {
      "en": "Diana"
    },
    "latitude": 36.678284122377484,
    "longitude": 44.53663025390245
  },
  {
    "title": "Harem",
    "address": {
      "en": "Harem"
    },
    "latitude": 36.651901112591254,
    "longitude": 44.522918373009986
  },
  {
    "title": "Barzan kawa st",
    "address": {
      "en": "Barzan kawa st"
    },
    "latitude": 36.64974078970756,
    "longitude": 44.53323171154254
  },
  {
    "title": "32 Park ",
    "address": {
      "en": "32 Park "
    },
    "latitude": 36.19148516108281,
    "longitude": 43.95015195174588
  },
  {
    "title": "شارع المنتزه ",
    "address": {
      "en": "شارع المنتزه "
    },
    "latitude": 36.22971718835233,
    "longitude": 43.99192260042421
  },
  {
    "title": "كويه",
    "address": {
      "en": "كويه"
    },
    "latitude": 36.09204408833981,
    "longitude": 44.63908632490611
  },
  {
    "title": "فندق سیپان",
    "address": {
      "en": "فندق سیپان"
    },
    "latitude": 36.211373113132886,
    "longitude": 43.98012049138303
  },
  {
    "title": "Erbil Distribution Center",
    "address": {
      "en": "Erbil Distribution Center"
    },
    "latitude": 36.17597340721697,
    "longitude": 43.94154747617029
  },
  {
    "title": "بيرمام",
    "address": {
      "en": "بيرمام"
    },
    "latitude": 36.38133080546671,
    "longitude": 44.2014724423024
  },
  {
    "title": "شاويس ",
    "address": {
      "en": "شاويس "
    },
    "latitude": 36.24970856573183,
    "longitude": 44.085307813494985
  },
  {
    "title": "قائم مقام جومان",
    "address": {
      "en": "قائم مقام جومان"
    },
    "latitude": 36.63171104126707,
    "longitude": 44.88456846348616
  },
  {
    "title": "محكمة اربيل ",
    "address": {
      "en": "محكمة اربيل "
    },
    "latitude": 36.183338637183276,
    "longitude": 43.98074643362182
  },
  {
    "title": "كلية التربية/شقلاوة",
    "address": {
      "en": "كلية التربية/شقلاوة"
    },
    "latitude": 36.409731455378186,
    "longitude": 44.31149486242624
  },
  {
    "title": "مصرف كولان",
    "address": {
      "en": "مصرف كولان"
    },
    "latitude": 36.26822840027464,
    "longitude": 43.66199351910406
  },
  {
    "title": "سوق اربيل الكبير",
    "address": {
      "en": "سوق اربيل الكبير"
    },
    "latitude": 36.185441010642414,
    "longitude": 44.01097484577322
  },
  {
    "title": "قاضي محمد ",
    "address": {
      "en": "قاضي محمد "
    },
    "latitude": 36.179189955106615,
    "longitude": 44.00824949740681
  },
  {
    "title": "مجلس محافظة اربيل",
    "address": {
      "en": "مجلس محافظة اربيل"
    },
    "latitude": 36.186140576305384,
    "longitude": 43.996722457753236
  },
  {
    "title": "بارك سامي عبد الرحمن",
    "address": {
      "en": "بارك سامي عبد الرحمن"
    },
    "latitude": 36.184338252281414,
    "longitude": 43.983298682543186
  },
  {
    "title": "فاميلي مول/ هەولێر",
    "address": {
      "en": "فاميلي مول/ هەولێر"
    },
    "latitude": 36.21079651513707,
    "longitude": 44.046535974898084
  },
  {
    "title": "شركة الحياة / بيبسي",
    "address": {
      "en": "شركة الحياة / بيبسي"
    },
    "latitude": 36.16209516895379,
    "longitude": 43.994865400320144
  },
  {
    "title": "فندق ديفان",
    "address": {
      "en": "فندق ديفان"
    },
    "latitude": 36.196955616200675,
    "longitude": 43.97669571725563
  },
  {
    "title": "تابلو مول",
    "address": {
      "en": "تابلو مول"
    },
    "latitude": 36.17148,
    "longitude": 44.01362
  },
  {
    "title": " المقرالرئيسي",
    "address": {
      "en": " المقرالرئيسي"
    },
    "latitude": 36.21638,
    "longitude": 43.99938
  },
  {
    "title": "شركة قمر الفجر",
    "address": {
      "en": "شركة قمر الفجر"
    },
    "latitude": 36.174634722069335,
    "longitude": 44.02048961651697
  },
  {
    "title": "جامعة كردستان",
    "address": {
      "en": "جامعة كردستان"
    },
    "latitude": 36.18227357108548,
    "longitude": 44.00671126512119
  },
  {
    "title": "مطار اربيل - القادمون",
    "address": {
      "en": "مطار اربيل - القادمون"
    },
    "latitude": 36.23357,
    "longitude": 43.95539
  },
  {
    "title": "فيو ماركت",
    "address": {
      "en": "فيو ماركت"
    },
    "latitude": 36.208778392656264,
    "longitude": 43.982144436113565
  },
  {
    "title": "ماجدي ماركت 3",
    "address": {
      "en": "ماجدي ماركت 3"
    },
    "latitude": 36.262094711296626,
    "longitude": 44.08973928635255
  },
  {
    "title": "بلان بازار ",
    "address": {
      "en": "بلان بازار "
    },
    "latitude": 36.19217,
    "longitude": 43.96791
  },
  {
    "title": "مستشفى الولادة",
    "address": {
      "en": "مستشفى الولادة"
    },
    "latitude": 36.21586828,
    "longitude": 44.03361963
  },
  {
    "title": "شو ماركت - طريق كوية",
    "address": {
      "en": "شو ماركت - طريق كوية"
    },
    "latitude": 36.20586908387763,
    "longitude": 44.12206939632757
  },
  {
    "title": " مستشفى رزكاري",
    "address": {
      "en": " مستشفى رزكاري"
    },
    "latitude": 36.19266091531509,
    "longitude": 44.03665347668401
  },
  {
    "title": "كلية العلوم",
    "address": {
      "en": "كلية العلوم"
    },
    "latitude": 36.1521090009183,
    "longitude": 44.01860404903681
  },
  {
    "title": "طريق بنصلاوة القديم",
    "address": {
      "en": "طريق بنصلاوة القديم"
    },
    "latitude": 36.16696601793696,
    "longitude": 44.05050415297506
  },
  {
    "title": "كلية الاداب",
    "address": {
      "en": "كلية الاداب"
    },
    "latitude": 36.158508613364084,
    "longitude": 44.01377080469774
  },
  {
    "title": "بنك زانكو",
    "address": {
      "en": "بنك زانكو"
    },
    "latitude": 36.141641138746905,
    "longitude": 44.02019235112862
  },
  {
    "title": "تابلو مول2",
    "address": {
      "en": "تابلو مول2"
    },
    "latitude": 36.171804566132934,
    "longitude": 44.01433144288079
  },
  {
    "title": "فندق عنكاوا هوليداي",
    "address": {
      "en": "فندق عنكاوا هوليداي"
    },
    "latitude": 36.22855,
    "longitude": 44.004829
  },
  {
    "title": "مصرف القلعة ",
    "address": {
      "en": "مصرف القلعة "
    },
    "latitude": 36.17189226662579,
    "longitude": 43.98078666174877
  },
  {
    "title": "وزارة التجارة",
    "address": {
      "en": "وزارة التجارة"
    },
    "latitude": 36.19683447901035,
    "longitude": 44.02426383146328
  },
  {
    "title": "ارام ستي",
    "address": {
      "en": "ارام ستي"
    },
    "latitude": 36.24497082862031,
    "longitude": 44.041414018865034
  },
  {
    "title": "واو تاوەر",
    "address": {
      "en": "واو تاوەر"
    },
    "latitude": 36.17280647689859,
    "longitude": 43.96212781740406
  },
  {
    "title": "سورك بنك",
    "address": {
      "en": "سورك بنك"
    },
    "latitude": 36.398272727919185,
    "longitude": 44.32908130138597
  },
  {
    "title": "مديرية صحة اربيل",
    "address": {
      "en": "مديرية صحة اربيل"
    },
    "latitude": 36.19227911786361,
    "longitude": 44.003651741824925
  },
  {
    "title": "هولير مول",
    "address": {
      "en": "هولير مول"
    },
    "latitude": 36.196770834071195,
    "longitude": 44.016319236582405
  },
  {
    "title": "مديرية الاستثمار ",
    "address": {
      "en": "مديرية الاستثمار "
    },
    "latitude": 36.19321019219106,
    "longitude": 44.02638978206865
  },
  {
    "title": "مطعم هولير",
    "address": {
      "en": "مطعم هولير"
    },
    "latitude": 36.20533623,
    "longitude": 43.99995981
  },
  {
    "title": "قوشتبة",
    "address": {
      "en": "قوشتبة"
    },
    "latitude": 36.0041565794165,
    "longitude": 44.037328712554604
  },
  {
    "title": "كوي ",
    "address": {
      "en": "كوي "
    },
    "latitude": 36.08192755600066,
    "longitude": 44.628964583831745
  },
  {
    "title": "كنجان سيتي ",
    "address": {
      "en": "كنجان سيتي "
    },
    "latitude": 36.29268420601479,
    "longitude": 44.03355556006566
  },
  {
    "title": " سوران",
    "address": {
      "en": " سوران"
    },
    "latitude": 36.6376589272706,
    "longitude": 44.55869999066027
  },
  {
    "title": "خليفان",
    "address": {
      "en": "خليفان"
    },
    "latitude": 36.60401761535458,
    "longitude": 44.40056179504314
  },
  {
    "title": "حرير",
    "address": {
      "en": "حرير"
    },
    "latitude": 36.548964436858974,
    "longitude": 44.35195893249198
  },
  {
    "title": "سوران",
    "address": {
      "en": "سوران"
    },
    "latitude": 36.65191296375531,
    "longitude": 44.533841490109516
  },
  {
    "title": "روفيا",
    "address": {
      "en": "روفيا"
    },
    "latitude": 36.61857948128348,
    "longitude": 43.70246496268476
  },
  {
    "title": "رواندوز",
    "address": {
      "en": "رواندوز"
    },
    "latitude": 36.61962055959003,
    "longitude": 44.53325075254256
  },
  {
    "title": "Mergasur",
    "address": {
      "en": "Mergasur"
    },
    "latitude": 36.85155508626541,
    "longitude": 44.29391378085979
  },
  {
    "title": "ديلزيا",
    "address": {
      "en": "ديلزيا"
    },
    "latitude": 36.69525474259728,
    "longitude": 44.53065692482459
  },
  {
    "title": "كورد نفط /مقابل القرية اللبنانية",
    "address": {
      "en": "كورد نفط /مقابل القرية اللبنانية"
    },
    "latitude": 36.261950025325675,
    "longitude": 44.01476092358303
  },
  {
    "title": "مستشفى نانكلي",
    "address": {
      "en": "مستشفى نانكلي"
    },
    "latitude": 36.16444274972246,
    "longitude": 44.00992019623291
  },
  {
    "title": "بلدية بحركة ",
    "address": {
      "en": "بلدية بحركة "
    },
    "latitude": 36.31542148748969,
    "longitude": 44.03276338580377
  },
  {
    "title": "كورد نفط / مقابل فاملي مول",
    "address": {
      "en": "كورد نفط / مقابل فاملي مول"
    },
    "latitude": 36.20882124741754,
    "longitude": 44.043879850301686
  },
  {
    "title": "لايف تاور",
    "address": {
      "en": "لايف تاور"
    },
    "latitude": 36.18174796716854,
    "longitude": 43.95111134132292
  },
  {
    "title": "كوالتي كونترول",
    "address": {
      "en": "كوالتي كونترول"
    },
    "latitude": 36.16237876504773,
    "longitude": 43.96882640324062
  },
  {
    "title": "بلدية عنكاوا",
    "address": {
      "en": "بلدية عنكاوا"
    },
    "latitude": 36.240281411722115,
    "longitude": 43.98727707367573
  },
  {
    "title": "بلي",
    "address": {
      "en": "بلي"
    },
    "latitude": 36.86816283,
    "longitude": 44.06173886
  },
  {
    "title": "مصيف، صلاح الدين",
    "address": {
      "en": "مصيف، صلاح الدين"
    },
    "latitude": 36.381407,
    "longitude": 44.20124
  },
  {
    "title": "هەولێر، ١٠٠ م، تەنیشت بانکی زانکۆ",
    "address": {
      "en": "هەولێر، ١٠٠ م، تەنیشت بانکی زانکۆ"
    },
    "latitude": 36.140639,
    "longitude": 44.020361
  },
  {
    "title": "شەقڵاوە -بەردەم پەروەردەی شەقڵاوە",
    "address": {
      "en": "شەقڵاوە -بەردەم پەروەردەی شەقڵاوە"
    },
    "latitude": 36.409912,
    "longitude": 44.311609
  },
  {
    "title": "خەبات - بەردەم قایمقامیەتی خەبات",
    "address": {
      "en": "خەبات - بەردەم قایمقامیەتی خەبات"
    },
    "latitude": 36.268443,
    "longitude": 43.662053
  },
  {
    "title": "هەولێر، ٣٠ م، نزیک زانکۆی کوردستان",
    "address": {
      "en": "هەولێر، ٣٠ م، نزیک زانکۆی کوردستان"
    },
    "latitude": 36.179463,
    "longitude": 44.008215
  },
  {
    "title": "هەولێر، شەقامی نەورۆز، خوار نەخۆشخانەی پاکی",
    "address": {
      "en": "هەولێر، شەقامی نەورۆز، خوار نەخۆشخانەی پاکی"
    },
    "latitude": 36.172011,
    "longitude": 43.980704
  },
  {
    "title": "هەولێر، ١٠٠ م، بەردەم بانکی قەڵات",
    "address": {
      "en": "هەولێر، ١٠٠ م، بەردەم بانکی قەڵات"
    },
    "latitude": 36.162326,
    "longitude": 43.968797
  },
  {
    "title": "هەولێر، خوار پاڕکی شار، بەرامبەر بازاڕی نیشتیمان",
    "address": {
      "en": "هەولێر، خوار پاڕکی شار، بەرامبەر بازاڕی نیشتیمان"
    },
    "latitude": 36.185488,
    "longitude": 44.011008
  },
  {
    "title": "هەولێر، ٦٠ م، بەردەم وەزارەتی بازرگانی و پیشەسازی",
    "address": {
      "en": "هەولێر، ٦٠ م، بەردەم وەزارەتی بازرگانی و پیشەسازی"
    },
    "latitude": 36.197011,
    "longitude": 44.024568
  },
  {
    "title": "بەردەم بانکی بنسلاوە",
    "address": {
      "en": "بەردەم بانکی بنسلاوە"
    },
    "latitude": 36.158894,
    "longitude": 44.125065
  },
  {
    "title": "هەولێر، ڕێگای کەسنەزان، بەرامبەر ماجیدی لاند",
    "address": {
      "en": "هەولێر، ڕێگای کەسنەزان، بەرامبەر ماجیدی لاند"
    },
    "latitude": 36.208724,
    "longitude": 44.139518
  },
  {
    "title": "هەولێر، ٦٠ م، بەردەم نەخۆشخانەی ئیمێرجنسی",
    "address": {
      "en": "هەولێر، ٦٠ م، بەردەم نەخۆشخانەی ئیمێرجنسی"
    },
    "latitude": 36.199864,
    "longitude": 43.998103
  },
  {
    "title": "هەولێر، پشت وەزارەتی پێشمەرگە",
    "address": {
      "en": "هەولێر، پشت وەزارەتی پێشمەرگە"
    },
    "latitude": 36.224065,
    "longitude": 44.054361
  },
  {
    "title": "سۆران - بەردەم نەخۆشخانەی لەدایکبوون",
    "address": {
      "en": "سۆران - بەردەم نەخۆشخانەی لەدایکبوون"
    },
    "latitude": 36.63757,
    "longitude": 44.558545
  },
  {
    "title": "قوشتەپە - پشت بانکی قوشتەپە",
    "address": {
      "en": "قوشتەپە - پشت بانکی قوشتەپە"
    },
    "latitude": 36.004982,
    "longitude": 44.038091
  },
  {
    "title": "کۆیە- بەردەم بانکی باوەجی",
    "address": {
      "en": "کۆیە- بەردەم بانکی باوەجی"
    },
    "latitude": 36.082249,
    "longitude": 44.628393
  },
  {
    "title": "خەلیفان-بەردەم  بنکەی ئاگرکوژێنەوەی خەلیفان",
    "address": {
      "en": "خەلیفان-بەردەم  بنکەی ئاگرکوژێنەوەی خەلیفان"
    },
    "latitude": 36.604243,
    "longitude": 44.400573
  },
  {
    "title": "تەق تەق - بەردەم بانکی تەق تەق",
    "address": {
      "en": "تەق تەق - بەردەم بانکی تەق تەق"
    },
    "latitude": 35.885781,
    "longitude": 44.589217
  },
  {
    "title": "هەریر- بەردەم بانکی هەریر",
    "address": {
      "en": "هەریر- بەردەم بانکی هەریر"
    },
    "latitude": 36.54897,
    "longitude": 44.351746
  },
  {
    "title": "چۆمان- نزیک پارکی قائیمقام",
    "address": {
      "en": "چۆمان- نزیک پارکی قائیمقام"
    },
    "latitude": 36.63189,
    "longitude": 44.884451
  },
  {
    "title": "رەواندز - نزیک قایمقامیەتی رەواندز",
    "address": {
      "en": "رەواندز - نزیک قایمقامیەتی رەواندز"
    },
    "latitude": 36.619854,
    "longitude": 44.533141
  },
  {
    "title": "سۆران - بەردەم بانکی ئازادی",
    "address": {
      "en": "سۆران - بەردەم بانکی ئازادی"
    },
    "latitude": 36.652008,
    "longitude": 44.534052
  },
  {
    "title": "سۆران، دێلزیا- بەردەم کۆلێژی تەکنیکی سۆران",
    "address": {
      "en": "سۆران، دێلزیا- بەردەم کۆلێژی تەکنیکی سۆران"
    },
    "latitude": 36.695411,
    "longitude": 44.530562
  },
  {
    "title": "سۆران - ئازادی - نزیک مزگەوتی سبغة اللە",
    "address": {
      "en": "سۆران - ئازادی - نزیک مزگەوتی سبغة اللە"
    },
    "latitude": 36.678207,
    "longitude": 44.536593
  },
  {
    "title": "چۆمان - بەرامبەر بانکی چۆمان",
    "address": {
      "en": "چۆمان - بەرامبەر بانکی چۆمان"
    },
    "latitude": 36.637147,
    "longitude": 44.889606
  },
  {
    "title": "سۆران - نزیک کەبابخانەی مام دەروێش",
    "address": {
      "en": "سۆران - نزیک کەبابخانەی مام دەروێش"
    },
    "latitude": 36.65175,
    "longitude": 44.55008
  },
  {
    "title": "پیرمام - شەقامی گولان - نزیک پارک",
    "address": {
      "en": "پیرمام - شەقامی گولان - نزیک پارک"
    },
    "latitude": 36.392915,
    "longitude": 44.187564
  },
  {
    "title": "هەولێر، زانکۆ، بەردەم سەرۆکایەتی زانکۆی سەڵاحەدین",
    "address": {
      "en": "هەولێر، زانکۆ، بەردەم سەرۆکایەتی زانکۆی سەڵاحەدین"
    },
    "latitude": 36.148396,
    "longitude": 44.030963
  }
]
